[
  {
    "geom": {"type": "Point", "coordinates": [35.7952, 51.432]},
    "doctorId": 1,
    "secretaryId": 1,
    "lat": 35.7952,
    "long": 51.432,
    "phoneNumber": "02122317251",
    "address": " تجریش",
    "cityId": 1,
    "insuranceId": [1,2]
  },
  {
    "geom": {"type": "Point", "coordinates": [35.7952, 51.432]},
    "doctorId": 2,
    "secretaryId": 1,
    "lat": 35.7952,
    "long": 51.432,
    "phoneNumber": "02122317251",
    "address": " تجریش",
    "cityId": 1,
    "insuranceId": [1,3]

  },
  {
    "geom": {"type": "Point", "coordinates": [35.7952, 51.432]},
    "doctorId": 3,
    "secretaryId": 1,
    "lat": 35.7952,
    "long": 51.432,
    "phoneNumber": "02122317251",
    "address": " تجریش",
    "insuranceId": [1,2,3],
    "cityId": 1
  },
  {
    "geom": {"type": "Point", "coordinates": [35.7729, 51.4441]},
    "doctorId": 1,
    "secretaryId": 1,
    "lat": 29.5918,
    "long": 52.5837,
    "phoneNumber": "071122317268",
    "address": "وصال",
    "insuranceId": [1],
    "cityId": 3
  },
  {
    "geom": {"type": "Point", "coordinates": [35.7729, 51.4441]},
    "doctorId": 2,
    "secretaryId": 1,
    "lat": 35.7729,
    "long": 52.5837,
    "phoneNumber": "071122317268",
    "address": "وصال",
    "cityId": 3

  },
  {
    "geom": {"type": "Point", "coordinates": [35.7729, 51.4441]},
    "doctorId": 3,
    "secretaryId": 1,
    "lat": 35.7729,
    "long": 52.5837,
    "phoneNumber": "071122317268",
    "address": "وصال",
    "insuranceId": [1,2],
    "cityId": 3


  },
  {
    "geom": {"type": "Point", "coordinates": [35.7782, 51.4703]},
    "doctorId": 1,
    "secretaryId": 1,
    "lat": 35.7782,
    "long": 51.4703,
    "phoneNumber": "02122317268",
    "address": " پاسداران",
    "insuranceId": [1,2],
    "cityId": 1


  },
  {
    "geom": {"type": "Point", "coordinates": [35.7782, 51.4703]},
    "doctorId": 2,
    "secretaryId": 1,
    "lat": 35.7782,
    "long": 51.4703,
    "phoneNumber": "02122317268",
    "address": " پاسداران",
    "cityId": 1

  },
  {
    "geom": {"type": "Point", "coordinates": [35.7782, 51.4703]},
    "doctorId": 3,
    "secretaryId": 1,
    "lat": 35.7782,
    "long": 51.4703,
    "phoneNumber": "02122317268",
    "address": " پاسداران",
    "cityId": 1

  },
  {
    "geom": {"type": "Point", "coordinates": [35.7282, 51.4160]},
    "doctorId": 1,
    "secretaryId": 1,
    "lat": 35.7282,
    "long": 51.4160,
    "phoneNumber": "02122317268",
    "address": " آزادی",
    "cityId": 1

  }
,
  {
    "geom": {"type": "Point", "coordinates": [35.7564, 51.3759]},
    "doctorId": 1,
    "secretaryId": 1,
    "lat": 35.7564,
    "long": 51.3759,
    "phoneNumber": "02122317268",
    "address": " شهرک غرب",
    "cityId": 1

  }

]
