[
  {
    "geom": {"type": "Point", "coordinates": [35.7952, 51.432]},
    "doctorId": 1,
    "secretaryId": 1,
    "lat": 35.7952,
    "long": 51.432,
    "phoneNumber": "02122317251",
    "address": "تهران تجریش"
  },
  {
    "geom": {"type": "Point", "coordinates": [35.7729, 51.4441]},
    "doctorId": 1,
    "secretaryId": 1,
    "lat": 35.7729,
    "long": 51.4441,
    "phoneNumber": "02122317268",
    "address": "تهران قلهک"
  },
  {
    "geom": {"type": "Point", "coordinates": [35.7782, 51.4703]},
    "doctorId": 1,
    "secretaryId": 1,
    "lat": 35.7782,
    "long": 51.4703,
    "phoneNumber": "02122317268",
    "address": "تهران پاسداران"
  },
  {
    "geom": {"type": "Point", "coordinates": [35.7282, 51.4160]},
    "doctorId": 1,
    "secretaryId": 1,
    "lat": 35.7282,
    "long": 51.4160,
    "phoneNumber": "02122317268",
    "address": "تهران آزادی"
  }
,
  {
    "geom": {"type": "Point", "coordinates": [35.7564, 51.3759]},
    "doctorId": 1,
    "secretaryId": 1,
    "lat": 35.7564,
    "long": 51.3759,
    "phoneNumber": "02122317268",
    "address": "تهران شهرک غرب"
  }
]